[
  {
    "id": "w01",
    "name": "Ramapuram",
    "population": 24500,
    "lat": 16.582,
    "lng": 79.421,
    "schoolEnrollment": 2100,
    "avgSchoolDistanceKm": 1.8,
    "literacyRate": 71,
    "pipedWaterCoverage": 68,
    "roadConditionIndex": 61,
    "healthFacilityDistanceKm": 4.2,
    "powerReliability": 78,
    "unemploymentRate": 9.5
  },
  {
    "id": "w02",
    "name": "Kondaveedu",
    "population": 18200,
    "lat": 16.61,
    "lng": 79.478,
    "schoolEnrollment": 1450,
    "avgSchoolDistanceKm": 2.4,
    "literacyRate": 66,
    "pipedWaterCoverage": 54,
    "roadConditionIndex": 48,
    "healthFacilityDistanceKm": 6.8,
    "powerReliability": 72,
    "unemploymentRate": 12.1
  },
  {
    "id": "w03",
    "name": "Chintalapadu",
    "population": 31200,
    "lat": 16.548,
    "lng": 79.512,
    "schoolEnrollment": 3350,
    "avgSchoolDistanceKm": 5.6,
    "literacyRate": 62,
    "pipedWaterCoverage": 59,
    "roadConditionIndex": 55,
    "healthFacilityDistanceKm": 7.5,
    "powerReliability": 69,
    "unemploymentRate": 13.4
  },
  {
    "id": "w04",
    "name": "Nallamada",
    "population": 15800,
    "lat": 16.522,
    "lng": 79.445,
    "schoolEnrollment": 1210,
    "avgSchoolDistanceKm": 3.1,
    "literacyRate": 58,
    "pipedWaterCoverage": 41,
    "roadConditionIndex": 39,
    "healthFacilityDistanceKm": 9.2,
    "powerReliability": 61,
    "unemploymentRate": 15.8
  },
  {
    "id": "w05",
    "name": "Veerlapalem",
    "population": 21900,
    "lat": 16.635,
    "lng": 79.52,
    "schoolEnrollment": 1890,
    "avgSchoolDistanceKm": 2.2,
    "literacyRate": 69,
    "pipedWaterCoverage": 72,
    "roadConditionIndex": 66,
    "healthFacilityDistanceKm": 3.8,
    "powerReliability": 81,
    "unemploymentRate": 8.9
  },
  {
    "id": "w06",
    "name": "Gopannagudem",
    "population": 12600,
    "lat": 16.498,
    "lng": 79.548,
    "schoolEnrollment": 980,
    "avgSchoolDistanceKm": 4.3,
    "literacyRate": 55,
    "pipedWaterCoverage": 36,
    "roadConditionIndex": 33,
    "healthFacilityDistanceKm": 11.4,
    "powerReliability": 57,
    "unemploymentRate": 17.2
  },
  {
    "id": "w07",
    "name": "Mallepalli",
    "population": 19400,
    "lat": 16.571,
    "lng": 79.569,
    "schoolEnrollment": 1620,
    "avgSchoolDistanceKm": 2.9,
    "literacyRate": 64,
    "pipedWaterCoverage": 63,
    "roadConditionIndex": 52,
    "healthFacilityDistanceKm": 5.6,
    "powerReliability": 74,
    "unemploymentRate": 11.3
  },
  {
    "id": "w08",
    "name": "Sitarampuram",
    "population": 27100,
    "lat": 16.602,
    "lng": 79.398,
    "schoolEnrollment": 2380,
    "avgSchoolDistanceKm": 1.5,
    "literacyRate": 74,
    "pipedWaterCoverage": 77,
    "roadConditionIndex": 70,
    "healthFacilityDistanceKm": 2.9,
    "powerReliability": 84,
    "unemploymentRate": 7.6
  },
  {
    "id": "w09",
    "name": "Jangamvari Thanda",
    "population": 8900,
    "lat": 16.472,
    "lng": 79.49,
    "schoolEnrollment": 720,
    "avgSchoolDistanceKm": 6.8,
    "literacyRate": 49,
    "pipedWaterCoverage": 28,
    "roadConditionIndex": 24,
    "healthFacilityDistanceKm": 13.6,
    "powerReliability": 52,
    "unemploymentRate": 19.5
  },
  {
    "id": "w10",
    "name": "Krishnapuram",
    "population": 23800,
    "lat": 16.556,
    "lng": 79.362,
    "schoolEnrollment": 2050,
    "avgSchoolDistanceKm": 2.0,
    "literacyRate": 70,
    "pipedWaterCoverage": 66,
    "roadConditionIndex": 58,
    "healthFacilityDistanceKm": 4.7,
    "powerReliability": 76,
    "unemploymentRate": 10.2
  },
  {
    "id": "w11",
    "name": "Devarakonda",
    "population": 16700,
    "lat": 16.645,
    "lng": 79.44,
    "schoolEnrollment": 1340,
    "avgSchoolDistanceKm": 3.7,
    "literacyRate": 61,
    "pipedWaterCoverage": 49,
    "roadConditionIndex": 44,
    "healthFacilityDistanceKm": 8.1,
    "powerReliability": 66,
    "unemploymentRate": 14.0
  },
  {
    "id": "w12",
    "name": "Suryagiri Town",
    "population": 42300,
    "lat": 16.575,
    "lng": 79.495,
    "schoolEnrollment": 4100,
    "avgSchoolDistanceKm": 0.9,
    "literacyRate": 82,
    "pipedWaterCoverage": 88,
    "roadConditionIndex": 75,
    "healthFacilityDistanceKm": 1.2,
    "powerReliability": 90,
    "unemploymentRate": 6.4
  }
]
